2015-07-22 12:05:10: $GPGGA,212651.000,3635.7220,N,12152.5614,W,1,04,4.8,17.9,M,-27.5,M,,*50

2015-07-22 12:05:11: $GPGGA,212652.000,3635.7220,N,12152.5614,W,1,04,4.8,17.9,M,-27.5,M,,*53

2015-07-22 12:05:12: $GPGGA,212653.000,3635.7220,N,12152.5614,W,1,04,4.8,17.9,M,-27.5,M,,*52

2015-07-22 12:05:13: $GPGGA,212654.000,3635.7220,N,12152.5614,W,1,04,4.8,17.9,M,-27.5,M,,*55

2015-07-22 12:05:14: $GPGGA,212655.000,3635.7220,N,12152.5614,W,1,03,10.1,17.9,M,-27.5,M,,*6F

2015-07-22 12:05:17: $GPGGA,212658.000,3635.7323,N,12152.5737,W,1,03,10.1,15.7,M,-27.5,M,,*6C

2015-07-22 12:05:18: $GPGGA,212659.000,3635.7325,N,12152.5740,W,1,03,10.1,15.5,M,-27.5,M,,*69

2015-07-22 12:05:19: $GPGGA,212700.000,3635.7325,N,12152.5740,W,1,03,10.1,15.5,M,-27.5,M,,*64

2015-07-22 12:05:20: $GPGGA,212701.000,3635.7325,N,12152.5740,W,1,03,10.1,15.5,M,-27.5,M,,*65

2015-07-22 12:05:21: $GPGGA,212702.000,3635.7325,N,12152.5740,W,1,03,10.0,15.5,M,-27.5,M,,*67

2015-07-22 12:05:22: $GPGGA,212703.000,3635.7325,N,12152.5740,W,1,03,10.0,15.5,M,-27.5,M,,*66

2015-07-22 12:05:23: $GPGGA,212704.000,3635.7325,N,12152.5740,W,1,04,4.8,15.5,M,-27.5,M,,*5B

2015-07-22 12:05:24: $GPGGA,212705.000,3635.7325,N,12152.5740,W,1,04,4.8,15.5,M,-27.5,M,,*5A

2015-07-22 12:05:25: $GPGGA,212706.000,3635.7325,N,12152.5740,W,1,03,50.0,15.5,M,-27.5,M,,*67

2015-07-22 12:05:26: $GPGGA,212707.000,3635.7325,N,12152.5740,W,6,00,50.0,15.5,M,-27.5,M,,*62

2015-07-22 12:05:27: $GPGGA,212708.000,3635.7325,N,12152.5740,W,6,00,50.0,15.5,M,-27.5,M,,*6D

2015-07-22 12:05:28: $GPGGA,212709.000,3635.7325,N,12152.5740,W,1,03,7.0,15.5,M,-27.5,M,,*5A

2015-07-22 12:05:29: $GPGGA,212710.000,3635.7325,N,12152.5740,W,1,03,7.0,15.5,M,-27.5,M,,*52

2015-07-22 12:05:30: $GPGGA,212711.000,3635.7325,N,12152.5740,W,6,00,50.0,15.5,M,-27.5,M,,*65

2015-07-22 12:05:31: $GPGGA,212712.000,3635.7325,N,12152.5740,W,1,04,2.3,15.5,M,-27.5,M,,*51

2015-07-22 12:05:32: $GPGGA,212713.000,3635.7325,N,12152.5740,W,1,04,2.3,15.5,M,-27.5,M,,*50

2015-07-22 12:05:33: $GPGGA,212714.000,3635.7325,N,12152.5740,W,1,05,1.8,15.5,M,-27.5,M,,*5E

2015-07-22 12:05:34: $GPGGA,212715.000,3635.7325,N,12152.5740,W,1,04,2.3,15.5,M,-27.5,M,,*56

2015-07-22 12:05:35: $GPGGA,212716.000,3635.7325,N,12152.5740,W,1,03,46.9,15.5,M,-27.5,M,,*68

2015-07-22 12:05:36: $GPGGA,212717.000,3635.7325,N,12152.5740,W,1,04,2.3,15.5,M,-27.5,M,,*54

2015-07-22 12:05:37: $GPGGA,212718.000,3635.7325,N,12152.5740,W,1,04,2.3,15.5,M,-27.5,M,,*5B

2015-07-22 12:05:38: $GPGGA,212719.000,3635.7325,N,12152.5740,W,1,03,46.0,15.5,M,-27.5,M,,*6E

2015-07-22 12:05:39: $GPGGA,212720.000,3635.7325,N,12152.5740,W,1,04,2.3,15.5,M,-27.5,M,,*50

2015-07-22 12:05:40: $GPGGA,212721.000,3635.7325,N,12152.5740,W,1,04,2.3,15.5,M,-27.5,M,,*51

2015-07-22 12:05:41: $GPGGA,212722.000,3635.7325,N,12152.5740,W,1,04,2.3,15.5,M,-27.5,M,,*52

2015-07-22 12:05:42: $GPGGA,212723.000,3635.7325,N,12152.5740,W,1,04,2.3,15.5,M,-27.5,M,,*53

2015-07-22 12:05:43: $GPGGA,212724.000,3635.7325,N,12152.5740,W,1,04,2.3,15.5,M,-27.5,M,,*54

2015-07-22 12:05:44: $GPGGA,212725.000,3635.7325,N,12152.5740,W,1,04,2.3,15.5,M,-27.5,M,,*55

2015-07-22 12:05:45: $GPGGA,212726.000,3635.7325,N,12152.5740,W,1,04,2.3,15.5,M,-27.5,M,,*56

2015-07-22 12:05:46: $GPGGA,212727.000,3635.7325,N,12152.5740,W,1,03,7.1,15.5,M,-27.5,M,,*57

2015-07-22 12:05:47: $GPGGA,212728.000,3635.7325,N,12152.5740,W,1,04,2.3,15.5,M,-27.5,M,,*58

2015-07-22 12:05:48: $GPGGA,212729.000,3635.7325,N,12152.5740,W,1,04,2.3,15.5,M,-27.5,M,,*59

2015-07-22 12:05:49: $GPGGA,212730.000,3635.7325,N,12152.5740,W,1,04,2.3,15.5,M,-27.5,M,,*51

2015-07-22 12:05:50: $GPGGA,212731.000,3635.7325,N,12152.5740,W,1,04,2.3,15.5,M,-27.5,M,,*50

2015-07-22 12:05:51: $GPGGA,212732.000,3635.7325,N,12152.5740,W,1,04,2.3,15.5,M,-27.5,M,,*53

2015-07-22 12:05:52: $GPGGA,212733.000,3635.7141,N,12152.5589,W,1,04,2.3,17.5,M,-27.5,M,,*57

2015-07-22 12:05:53: $GPGGA,212734.000,3635.7123,N,12152.5575,W,1,04,2.3,18.1,M,-27.5,M,,*5C

2015-07-22 12:05:54: $GPGGA,212735.000,3635.7105,N,12152.5562,W,1,04,2.3,18.5,M,-27.5,M,,*5B

2015-07-22 12:05:55: $GPGGA,212736.000,3635.7080,N,12152.5549,W,1,04,2.3,18.6,M,-27.5,M,,*5E

2015-07-22 12:05:56: $GPGGA,212737.000,3635.7068,N,12152.5540,W,1,04,2.3,19.0,M,-27.5,M,,*57

2015-07-22 12:05:57: $GPGGA,212738.000,3635.7066,N,12152.5533,W,1,04,2.3,19.8,M,-27.5,M,,*5A

2015-07-22 12:05:58: $GPGGA,212739.000,3635.7057,N,12152.5516,W,1,04,2.3,21.2,M,-27.5,M,,*5F

2015-07-22 12:05:59: $GPGGA,212740.000,3635.7057,N,12152.5516,W,1,04,2.3,21.2,M,-27.5,M,,*51

2015-07-22 12:06:01: $GPGGA,212742.000,3635.7057,N,12152.5516,W,1,03,40.1,21.2,M,-27.5,M,,*60

2015-07-22 12:06:02: $GPGGA,212743.000,3635.7057,N,12152.5516,W,1,03,39.9,21.2,M,-27.5,M,,*67

2015-07-22 12:06:03: $GPGGA,212744.000,3635.7057,N,12152.5516,W,1,04,2.3,21.2,M,-27.5,M,,*55

2015-07-22 12:06:04: $GPGGA,212745.000,3635.7057,N,12152.5516,W,1,04,2.3,21.2,M,-27.5,M,,*54

2015-07-22 12:06:05: $GPGGA,212746.000,3635.7057,N,12152.5516,W,1,04,2.3,21.2,M,-27.5,M,,*57

2015-07-22 12:06:06: $GPGGA,212747.000,3635.7057,N,12152.5516,W,1,04,2.3,21.2,M,-27.5,M,,*56

2015-07-22 12:06:07: $GPGGA,212748.000,3635.7057,N,12152.5516,W,1,04,2.3,21.2,M,-27.5,M,,*59

2015-07-22 12:06:08: $GPGGA,212749.000,3635.7057,N,12152.5516,W,1,04,2.3,21.2,M,-27.5,M,,*58

2015-07-22 12:06:09: $GPGGA,212750.000,3635.7057,N,12152.5516,W,1,04,2.3,21.2,M,-27.5,M,,*50

2015-07-22 12:06:10: $GPGGA,212751.000,3635.7057,N,12152.5516,W,1,04,2.3,21.2,M,-27.5,M,,*51

2015-07-22 12:06:11: $GPGGA,212752.000,3635.7057,N,12152.5516,W,1,04,2.3,21.2,M,-27.5,M,,*52

2015-07-22 12:06:12: $GPGGA,212753.000,3635.7057,N,12152.5516,W,1,04,2.3,21.2,M,-27.5,M,,*53

2015-07-22 12:06:13: $GPGGA,212754.000,3635.7057,N,12152.5516,W,1,04,2.3,21.2,M,-27.5,M,,*54

2015-07-22 12:06:14: $GPGGA,212755.000,3635.7057,N,12152.5516,W,1,04,2.3,21.2,M,-27.5,M,,*55

2015-07-22 12:06:15: $GPGGA,212756.000,3635.7057,N,12152.5516,W,1,03,37.3,21.2,M,-27.5,M,,*67

2015-07-22 12:06:16: $GPGGA,212757.000,3635.7057,N,12152.5516,W,1,03,37.1,21.2,M,-27.5,M,,*64

2015-07-22 12:06:17: $GPGGA,212758.000,3635.7057,N,12152.5516,W,1,04,2.3,21.2,M,-27.5,M,,*58

2015-07-22 12:06:18: $GPGGA,212759.000,3635.7057,N,12152.5516,W,1,04,2.3,21.2,M,-27.5,M,,*59

2015-07-22 12:06:19: $GPGGA,212800.000,3635.7057,N,12152.5516,W,1,04,2.3,21.2,M,-27.5,M,,*5A

2015-07-22 12:06:20: $GPGGA,212801.000,3635.7057,N,12152.5516,W,1,04,2.3,21.2,M,-27.5,M,,*5B

2015-07-22 12:06:21: $GPGGA,212802.000,3635.7057,N,12152.5516,W,1,04,2.3,21.2,M,-27.5,M,,*58

2015-07-22 12:06:22: $GPGGA,212803.000,3635.7057,N,12152.5516,W,1,04,2.3,21.2,M,-27.5,M,,*59

2015-07-22 12:06:23: $GPGGA,212804.000,3635.7057,N,12152.5516,W,1,04,2.3,21.2,M,-27.5,M,,*5E

2015-07-22 12:06:24: $GPGGA,212805.000,3635.7057,N,12152.5516,W,1,04,2.3,21.2,M,-27.5,M,,*5F

2015-07-22 12:06:25: $GPGGA,212806.000,3635.7057,N,12152.5516,W,1,04,2.3,21.2,M,-27.5,M,,*5C

2015-07-22 12:06:26: $GPGGA,212807.000,3635.7057,N,12152.5516,W,1,04,2.3,21.2,M,-27.5,M,,*5D

2015-07-22 12:06:27: $GPGGA,212808.000,3635.7057,N,12152.5516,W,1,03,2.2,21.2,M,-27.5,M,,*54

2015-07-22 12:06:28: $GPGGA,212809.000,3635.7057,N,12152.5516,W,1,04,2.3,21.2,M,-27.5,M,,*53

2015-07-22 12:06:29: $GPGGA,212810.000,3635.7057,N,12152.5516,W,1,05,1.7,21.2,M,-27.5,M,,*5D

2015-07-22 12:06:30: $GPGGA,212811.000,3635.7057,N,12152.5516,W,1,05,1.7,21.2,M,-27.5,M,,*5C

2015-07-22 12:06:31: $GPGGA,212812.000,3635.7057,N,12152.5516,W,1,04,2.3,21.2,M,-27.5,M,,*59

2015-07-22 12:06:32: $GPGGA,212813.000,3635.7057,N,12152.5516,W,1,04,2.3,21.2,M,-27.5,M,,*58

2015-07-22 12:06:33: $GPGGA,212814.000,3635.7229,N,12152.5680,W,1,03,7.4,19.1,M,-27.5,M,,*55

2015-07-22 12:06:34: $GPGGA,212815.000,3635.7230,N,12152.5682,W,6,00,50.0,19.1,M,-27.5,M,,*6C

2015-07-22 12:06:35: $GPGGA,212816.000,3635.7231,N,12152.5685,W,1,03,7.4,19.4,M,-27.5,M,,*5E

2015-07-22 12:06:36: $GPGGA,212817.000,3635.7230,N,12152.5687,W,6,00,50.0,19.4,M,-27.5,M,,*6E

2015-07-22 12:06:37: $GPGGA,212818.000,3635.7230,N,12152.5687,W,6,00,50.0,19.4,M,-27.5,M,,*61

2015-07-22 12:06:38: $GPGGA,212819.000,3635.7230,N,12152.5687,W,1,03,7.4,19.4,M,-27.5,M,,*52

2015-07-22 12:06:39: $GPGGA,212820.000,3635.7230,N,12152.5687,W,1,03,7.4,19.4,M,-27.5,M,,*58

2015-07-22 12:06:42: $GPGGA,212823.000,3635.7230,N,12152.5687,W,6,00,50.0,19.4,M,-27.5,M,,*69

2015-07-22 12:06:43: $GPGGA,212824.000,3635.7230,N,12152.5687,W,1,03,7.5,19.4,M,-27.5,M,,*5D

2015-07-22 12:06:44: $GPGGA,212825.000,3635.7230,N,12152.5687,W,1,04,2.3,19.4,M,-27.5,M,,*58

2015-07-22 12:06:46: $GPGGA,212827.000,3635.7230,N,12152.5687,W,1,04,2.3,19.4,M,-27.5,M,,*5A

2015-07-22 12:06:47: $GPGGA,212828.000,3635.7230,N,12152.5687,W,1,04,2.3,19.4,M,-27.5,M,,*55

2015-07-22 12:06:48: $GPGGA,212829.000,3635.7230,N,12152.5687,W,1,03,2.2,19.4,M,-27.5,M,,*52

2015-07-22 12:06:49: $GPGGA,212830.000,3635.7230,N,12152.5687,W,1,04,2.3,19.4,M,-27.5,M,,*5C

2015-07-22 12:06:50: 4,2.3,19.4,M,-27.5,M,,*5D

2015-07-22 12:06:51: $GPGGA,212832.000,3635.7230,N,12152.5687,W,1,03,31.5,19.4,M,-27.5,M,,*6F

                                                                                                                                                                                                                                                                                                                                                                                                                                                                                                                                                                                                                                                                                                                                                                                                                                                                                                                                                                                                                                                                                                                                                                                                                                                                                                                                                                                                                                                                                                                                                                                                                                                                                                                                                                                                                                                                                                                                                                                                                                                                                                                                                                                                                                                                                                                                                                                                                                                                                                                                                                                                                                                                                                                                                                                                                                                                                                                                                                                                                                                                                                                                                                                                                                                                                                                        2015-07-22 11:17:31:                                                                                                                                                                                                                                                                                                                                                                                                                                                                                                                                                                                                               Å¤¤†Æ…b
2015-07-22 11:17:34: NO_GPS_DATA

2015-07-22 11:17:35: $GPGGA,140823.498,,,,,0,00,,,M,0.0,M,,*5F

2015-07-22 11:17:36: $GPGGA,140824.498,,,,,0,00,,,M,0.0,M,,*58

2015-07-22 11:17:37: $GPGGA,140825.498,,,,,0,00,,,M,0.0,M,,*59

2015-07-22 11:17:38: $GPGGA,140826.498,,,,,0,00,,,M,0.0,M,,*5A

2015-07-22 11:17:39: $GPGGA,140827.500,,,,,0,00,,,M,0.0,M,,*5B

2015-07-22 11:17:40: $GPGGA,140828.494,,,,,0,00,,,M,0.0,M,,*58

2015-07-22 11:17:41: $GPGGA,140829.496,,,,,0,00,,,M,0.0,M,,*5B

2015-07-22 11:17:42: $GPGGA,140830.500,,,,,0,00,,,M,0.0,M,,*5D

2015-07-22 11:17:43: $GPGGA,140831.496,,,,,0,00,,,M,0.0,M,,*52

2015-07-22 11:17:44: $GPGGA,140832.500,,,,,0,00,,,M,0.0,M,,*5F

2015-07-22 11:17:45: $GPGGA,140833.502,,,,,0,00,,,M,0.0,M,,*5C

2015-07-22 11:17:46: $GPGGA,140834.498,,,,,0,00,,,M,0.0,M,,*59

2015-07-22 11:17:47: $GPGGA,140835.496,,,,,0,00,,,M,0.0,M,,*56

2015-07-22 11:17:55: $GPGGA,140843.496,,,,,0,00,,,M,0.0,M,,*57

2015-07-22 11:17:56: $GPGGA,140844.498,,,,,0,00,,,M,0.0,M,,*5E

2015-07-22 11:17:57: $GPGGA,140845.500,,,,,0,00,,,M,0.0,M,,*5F

2015-07-22 11:17:58: $GPGGA,140846.496,,,,,0,00,,,M,0.0,M,,*52

2015-07-22 11:17:59: $GPGGA,140847.498,,,,,0,00,,,M,0.0,M,,*5D

2015-07-22 11:18:04: $GPGGA,140852.498,,,,,0,00,,,M,0.0,M,,*59

2015-07-22 11:18:05: $GPGGA,140853.496,,,,,0,00,,,M,0.0,M,,*56

                                                                                                                                                                                                                                                                                                                                                                                                                                                                                                                                                                                                                                                                                                                                                                                                                                                                                                                                                                                                                                                                                                                                                                                                                                                                                                                                                                                                                                                                                                                                                                                                                                                                                                                                                                                                                                                                                                                                                                                                                                                                                               2015-07-22 11:17:26:  
2015-07-22 11:17:28: NO_GPS_DATA

2015-07-22 11:17:29: $GPGGA,162819.294,,,,,0,00,,,M,0.0,M,,*5C

2015-07-22 11:17:31: $GPGGA,162821.294,,,,,0,00,,,M,0.0,M,,*57

2015-07-22 11:17:32: $GPGGA,162822.294,,,,,0,00,,,M,0.0,M,,*54

2015-07-22 11:17:33: $GPGGA,162823.294,,,,,0,00,,,M,0.0,M,,*55

2015-07-22 11:17:34: $GPGGA,162824.294,,,,,0,00,,,M,0.0,M,,*52

2015-07-22 11:17:35: $GPGGA,162825.294,,,,,0,00,,,M,0.0,M,,*53

2015-07-22 11:17:36: $GPGGA,162826.294,,,,,0,00,,,M,0.0,M,,*50

2015-07-22 11:17:37: $GPGGA,162827.294,,,,,0,00,,,M,0.0,M,,*51

2015-07-22 11:17:38: $GPGGA,162828.294,,,,,0,00,,,M,0.0,M,,*5E

2015-07-22 11:17:39: $GPGGA,162829.294,,,,,0,00,,,M,0.0,M,,*5F

2015-07-22 11:17:40: $GPGGA,162830.294,,,,,0,00,,,M,0.0,M,,*57

2015-07-22 11:17:41: $GPGGA,162831.294,,,,,0,00,,,M,0.0,M,,*56

2015-07-22 11:17:42: $GPGGA,162832.294,,,,,0,00,,,M,0.0,M,,*55

2015-07-22 11:17:43: $GPGGA,162833.294,,,,,0,00,,,M,0.0,M,,*54

2015-07-22 11:17:44: $GPGGA,162834.294,,,,,0,00,,,M,0.0,M,,*53

2015-07-22 11:17:45: $GPGGA,162835.294,,,,,0,00,,,M,0.0,M,,*52

2015-07-22 11:17:46: $GPGGA,162836.294,,,,,0,00,,,M,0.0,M,,*51

2015-07-22 11:17:47: $GPGGA,162837.294,,,,,0,00,,,M,0.0,M,,*50

2015-07-22 11:17:48: $GPGGA,162838.294,,,,,0,00,,,M,0.0,M,,*5F

2015-07-22 11:17:49: $GPGGA,162839.294,,,,,0,00,,,M,0.0,M,,*5E

2015-07-22 11:17:50: $GPGGA,162840.294,,,,,0,00,,,M,0.0,M,,*50

2015-07-22 11:17:51: $GPGGA,162841.294,,,,,0,00,,,M,0.0,M,,*51

2015-07-22 11:17:52: $GPGGA,162842.294,,,,,0,00,,,M,0.0,M,,*52

2015-07-22 11:18:03: $GPGGA,162853.294,,,,,0,00,,,M,0.0,M,,*52

2015-07-22 11:18:08: $GPGGA,162858.294,,,,,0,00,,,M,0.0,M,,*59

2015-07-22 11:18:09: $GPGGA,162859.294,,,,,0,00,,,M,0.0,M,,*58

2015-07-22 11:18:10: $GPGGA,162900.294,,,,,0,00,,,M,0.0,M,,*55

2015-07-22 11:18:11: $GPGGA,162901.294,,,,,0,00,,,M,0.0,M,,*54

2015-07-22 11:18:12: $GPGGA,162902.294,,,,,0,00,,,M,0.0,M,,*57

2015-07-22 11:18:13: $GPGGA,162903.294,,,,,0,00,,,M,0.0,M,,*56

2015-07-22 11:18:14: $GPGGA,162904.294,,,,,0,00,,,M,0.0,M,,*51

2015-07-22 11:18:15: $GPGGA,162905.294,,,,,0,00,,,M,0.0,M,,*50

2015-07-22 11:18:16: $GPGGA,162906.294,,,,,0,00,,,M,0.0,M,,*53

2015-07-22 11:18:17: $GPGGA,162907.294,,,,,0,00,,,M,0.0,M,,*52

2015-07-22 11:18:18: $GPGGA,162908.294,,,,,0,00,,,M,0.0,M,,*5D

2015-07-22 11:18:19: $GPGGA,162909.294,,,,,0,00,,,M,0.0,M,,*5C

2015-07-22 11:18:20: $GPGGA,162910.294,,,,,0,00,,,M,0.0,M,,*54

2015-07-22 11:18:21: $GPGGA,162911.294,,,,,0,00,,,M,0.0,M,,*55

2015-07-22 11:18:22: $GPGGA,162912.294,,,,,0,00,,,M,0.0,M,,*56

2015-07-22 11:18:23: $GPGGA,162913.294,,,,,0,00,,,M,0.0,M,,*57

2015-07-22 11:18:24: $GPGGA,162914.294,,,,,0,00,,,M,0.0,M,,*50

2015-07-22 11:18:25: $GPGGA,162915.294,,,,,0,00,,,M,0.0,M,,*51

2015-07-22 11:18:26: $GPGGA,162916.294,,,,,0,00,,,M,0.0,M,,*52

2015-07-22 11:18:27: $GPGGA,162917.294,,,,,0,00,,,M,0.0,M,,*53

2015-07-22 11:18:28: $GPGGA,162918.294,,,,,0,00,,,M,0.0,M,,*5C

2015-07-22 11:18:29: $GPGGA,162919.294,,,,,0,00,,,M,0.0,M,,*5D

2015-07-22 11:18:30: $GPGGA,162920.294,,,,,0,00,,,M,0.0,M,,*57

2015-07-22 11:18:31: $GPGGA,162921.294,,,,,0,00,,,M,0.0,M,,*56

2015-07-22 11:18:32: $GPGGA,162922.294,,,,,0,00,,,M,0.0,M,,*55

2015-07-22 11:18:33: $GPGGA,162923.294,,,,,0,00,,,M,0.0,M,,*54

2015-07-22 11:18:34: $GPGGA,162924.294,,,,,0,00,,,M,0.0,M,,*53

2015-07-22 11:18:38: $GPGGA,162928.294,,,,,0,00,,,M,0.0,M,,*5F

2015-07-22 11:18:41: $GPGGA,162931.294,3643.5689,N,12115.9761,W,0,03,,19.0,M,-26.7,M,,*7A

2015-07-22 11:18:44: $GPGGA,162934.294,3643.5611,N,12115.9677,W,0,03,,19.0,M,-26.7,M,,*78

2015-07-22 11:18:45: $GPGGA,162935.294,3643.5545,N,12115.9604,W,0,03,,19.0,M,-26.7,M,,*7F

2015-07-22 11:18:46: $GPGGA,162936.294,3643.5492,N,12115.9549,W,0,03,,19.0,M,-26.7,M,,*7D

2015-07-22 11:18:47: $GPGGA,162937.294,3643.5436,N,12115.9494,W,0,03,,19.0,M,-26.7,M,,*73

2015-07-22 11:18:48: $GPGGA,162938.294,3643.5355,N,12115.9400,W,0,03,,19.0,M,-26.7,M,,*73

2015-07-22 11:18:49: $GPGGA,162939.294,3643.5519,N,12115.9611,W,0,03,,19.0,M,-26.7,M,,*7E

2015-07-22 11:18:50: $GPGGA,162940.294,3643.5321,N,12115.9351,W,0,03,,19.0,M,-26.7,M,,*7C

2015-07-22 11:18:51: $GPGGA,162941.294,3643.5376,N,12115.9410,W,0,03,,19.0,M,-26.7,M,,*7D

2015-07-22 11:18:52: $GPGGA,162942.294,3643.5846,N,12115.9950,W,0,03,,19.0,M,-26.7,M,,*7F

2015-07-22 11:18:53: $GPGGA,162943.294,3643.5251,N,12115.9310,W,0,03,,19.0,M,-26.7,M,,*7C

2015-07-22 11:18:54: $GPGGA,162944.294,,,,,0,00,,,M,0.0,M,,*55

2015-07-22 11:18:55: $GPGGA,162945.294,3643.5714,N,12115.9789,W,0,03,,19.0,M,-26.7,M,,*7A

2015-07-22 11:18:56: $GPGGA,162946.294,3643.5714,N,12115.9767,W,0,03,,19.0,M,-26.7,M,,*79

2015-07-22 11:18:57: $GPGGA,162947.294,3643.5192,N,12115.9274,W,0,03,,19.0,M,-26.7,M,,*77

2015-07-22 11:18:58: $GPGGA,162948.294,3643.4903,N,12115.8941,W,0,03,,19.0,M,-26.7,M,,*75

2015-07-22 11:19:00: $GPGGA,162950.294,3643.5743,N,12115.9801,W,0,03,,19.0,M,-26.7,M,,*73

2015-07-22 11:19:01: $GPGGA,162951.294,3643.5770,N,12115.9827,W,0,03,,19.0,M,-26.7,M,,*76

2015-07-22 11:19:02: $GPGGA,162952.294,3643.5500,N,12115.9550,W,0,03,,19.0,M,-26.7,M,,*7D

2015-07-22 11:19:03: $GPGGA,162953.294,3643.5677,N,12115.9727,W,0,03,,19.0,M,-26.7,M,,*7D

2015-07-22 11:19:04: $GPGGA,162954.294,3643.5629,N,12115.9677,W,0,03,,19.0,M,-26.7,M,,*75

2015-07-22 11:19:05: $GPGGA,162955.294,3643.5633,N,12115.9682,W,0,03,,19.0,M,-26.7,M,,*75

2015-07-22 11:19:06: $GPGGA,162956.294,3643.5688,N,12115.9736,W,0,03,,19.0,M,-26.7,M,,*78

2015-07-22 11:19:07: $GPGGA,162957.294,3641.2181,N,12113.0173,W,0,03,,19.0,M,-26.7,M,,*7A

2015-07-22 11:19:08: $GPGGA,162958.294,3639.9883,N,12111.4791,W,0,03,,19.0,M,-26.7,M,,*76

2015-07-22 11:19:09: $GPGGA,162959.294,3639.9727,N,12111.4652,W,0,03,,19.0,M,-26.7,M,,*78

2015-07-22 11:19:10: $GPGGA,163000.294,3640.0218,N,12111.5183,W,0,03,,19.0,M,-26.7,M,,*78

2015-07-22 11:19:11: $GPGGA,163001.294,,,,,0,00,,,M,0.0,M,,*5C

2015-07-22 11:19:12: $GPGGA,163002.294,3643.3887,N,12115.7527,W,1,03,1.9,19.0,M,-26.7,M,,*5D

2015-07-22 11:19:13: $GPGGA,163003.294,,,,,0,00,,,M,0.0,M,,*5E

2015-07-22 11:19:14: $GPGGA,163004.294,,,,,0,00,,,M,0.0,M,,*59

2015-07-22 11:19:15: $GPGGA,163005.294,,,,,0,00,,,M,0.0,M,,*58

2015-07-22 11:19:16: $GPGGA,163006.294,,,,,0,00,,,M,0.0,M,,*5B

2015-07-22 11:19:17: $GPGGA,163007.294,3643.3839,N,12115.7566,W,1,03,1.9,19.0,M,-26.7,M,,*58

2015-07-22 11:19:18: $GPGGA,163008.294,3643.3829,N,12115.7575,W,1,03,1.9,19.0,M,-26.7,M,,*54

2015-07-22 11:19:21: $GPGGA,163011.000,3643.3808,N,12115.7688,W,1,04,2.1,58.4,M,-26.7,M,,*5C

2015-07-22 11:19:22: $GPGGA,163012.000,3643.3802,N,12115.7703,W,1,04,2.1,62.2,M,-26.7,M,,*58

2015-07-22 11:19:23: $GPGGA,163013.000,3643.3802,N,12115.7703,W,1,04,2.1,62.2,M,-26.7,M,,*59

2015-07-22 11:19:24: $GPGGA,163014.000,3643.3802,N,12115.7703,W,1,04,2.1,62.2,M,-26.7,M,,*5E

2015-07-22 11:19:26: $GPGGA,163016.000,3643.3802,N,12115.7703,W,1,04,2.1,62.2,M,-26.7,M,,*5C

2015-07-22 11:19:27: $GPGGA,163017.000,3643.3802,N,12115.7703,W,1,04,2.1,62.2,M,-26.7,M,,*5D

2015-07-22 11:19:28: $GPGGA,163018.000,3643.3802,N,12115.7703,W,1,04,2.1,62.2,M,-26.7,M,,*52

2015-07-22 11:19:29: $GPGGA,163019.000,3643.3802,N,12115.7703,W,1,03,1.8,62.2,M,-26.7,M,,*5E

2015-07-22 11:19:30: $GPGGA,163020.000,3643.3802,N,12115.7703,W,1,03,1.8,62.2,M,-26.7,M,,*54

2015-07-22 11:19:31: $GPGGA,163021.000,3643.3802,N,12115.7703,W,1,03,1.8,62.2,M,-26.7,M,,*55

2015-07-22 11:19:32: $GPGGA,163022.000,3643.3802,N,12115.7703,W,1,03,1.8,62.2,M,-26.7,M,,*56

2015-07-22 11:19:33: $GPGGA,163023.000,3643.3802,N,12115.7703,W,1,03,1.8,62.2,M,-26.7,M,,*57

2015-07-22 11:19:34: $GPGGA,163024.000,3643.3802,N,12115.7703,W,6,00,50.0,62.2,M,-26.7,M,,*68

2015-07-22 11:19:35: $GPGGA,163025.000,3643.3802,N,12115.7703,W,1,03,1.8,62.2,M,-26.7,M,,*51

2015-07-22 11:19:36: $GPGGA,163026.000,3643.3802,N,12115.7703,W,1,03,1.8,62.2,M,-26.7,M,,*52

2015-07-22 11:19:37: $GPGGA,163027.000,3643.3802,N,12115.7703,W,1,03,1.8,62.2,M,-26.7,M,,*53

2015-07-22 11:19:38: $GPGGA,163028.000,3643.3802,N,12115.7703,W,1,03,1.8,62.2,M,-26.7,M,,*5C

2015-07-22 11:19:39: $GPGGA,163029.000,3643.3802,N,12115.7703,W,1,03,1.8,62.2,M,-26.7,M,,*5D

2015-07-22 11:19:40: $GPGGA,163030.000,3643.3821,N,12115.7780,W,1,04,2.1,103.5,M,-26.7,M,,*63

2015-07-22 11:19:41: $GPGGA,163031.000,3643.3831,N,12115.7783,W,1,04,1.2,105.8,M,-26.7,M,,*6B

2015-07-22 11:19:42: $GPGGA,163032.000,3643.3836,N,12115.7782,W,1,04,1.2,107.2,M,-26.7,M,,*66

2015-07-22 11:19:43: $GPGGA,163033.000,3643.3843,N,12115.7786,W,1,05,1.5,112.7,M,-26.7,M,,*66

2015-07-22 11:19:44: $GPGGA,163034.000,3643.3843,N,12115.7786,W,1,04,1.2,112.7,M,-26.7,M,,*67

2015-07-22 11:19:45: $GPGGA,163035.000,3643.3843,N,12115.7786,W,1,05,1.5,112.7,M,-26.7,M,,*60

2015-07-22 11:19:46: $GPGGA,163036.000,3643.3843,N,12115.7786,W,1,04,1.2,112.7,M,-26.7,M,,*65

2015-07-22 11:19:47: $GPGGA,163037.000,3643.3843,N,12115.7786,W,1,04,1.2,112.7,M,-26.7,M,,*64

2015-07-22 11:19:48: $GPGGA,163038.000,3643.3843,N,12115.7786,W,1,04,1.2,112.7,M,-26.7,M,,*6B

2015-07-22 11:19:49: $GPGGA,163039.000,3643.3843,N,12115.7786,W,1,05,1.5,112.7,M,-26.7,M,,*6C

2015-07-22 11:19:50: $GPGGA,163040.000,3643.3843,N,12115.7786,W,1,05,1.5,112.7,M,-26.7,M,,*62

2015-07-22 11:19:51: $GPGGA,163041.000,3643.3843,N,12115.7786,W,1,05,1.5,112.7,M,-26.7,M,,*63

2015-07-22 11:19:52: $GPGGA,163042.000,3643.3843,N,12115.7786,W,1,04,1.2,112.7,M,-26.7,M,,*66

2015-07-22 11:19:53: $GPGGA,163043.000,3643.3843,N,12115.7786,W,1,04,1.2,112.7,M,-26.7,M,,*67

2015-07-22 11:19:54: $GPGGA,163044.000,3643.3882,N,12115.7834,W,1,05,1.5,152.3,M,-26.7,M,,*6D

2015-07-22 11:19:55: $GPGGA,163045.000,3643.3886,N,12115.7841,W,1,05,1.5,156.4,M,-26.7,M,,*69

2015-07-22 11:19:58: $GPGGA,163048.000,3643.3896,N,12115.7847,W,1,05,1.5,163.1,M,-26.7,M,,*60

2015-07-22 11:20:02: $GPGGA,163052.000,3643.3896,N,12115.7847,W,1,05,1.5,163.1,M,-26.7,M,,*6B

2015-07-22 11:20:06: $GPGGA,163056.000,3643.3896,N,12115.7847,W,1,05,1.5,163.1,M,-26.7,M,,*6F

2015-07-22 11:20:07: $GPGGA,163057.000,3643.3896,N,12115.7847,W,1,05,1.5,163.1,M,-26.7,M,,*6E

2015-07-22 11:20:08: $GPGGA,163058.000,3643.3896,N,12115.7847,W,1,05,1.5,163.1,M,-26.7,M,,*61

2015-07-22 11:20:09: $GPGGA,163059.000,3643.3896,N,12115.7847,W,1,04,1.1,163.1,M,-26.7,M,,*65

2015-07-22 11:20:10: $GPGGA,163100.000,3643.3896,N,12115.7847,W,1,05,1.5,163.1,M,-26.7,M,,*6D

2015-07-22 11:20:11: $GPGGA,163101.000,3643.3896,N,12115.7847,W,1,05,1.5,163.1,M,-26.7,M,,*6C

2015-07-22 11:20:12: $GPGGA,163102.000,3643.3913,N,12115.7906,W,1,05,1.5,202.8,M,-26.7,M,,*6A

2015-07-22 11:20:13: $GPGGA,163103.000,3643.3917,N,12115.7906,W,1,04,1.6,204.0,M,-26.7,M,,*63

2015-07-22 11:20:14: $GPGGA,163104.000,3643.3913,N,12115.7905,W,1,04,1.6,203.5,M,-26.7,M,,*61

2015-07-22 11:20:15: $GPGGA,163105.000,3643.3905,N,12115.7904,W,1,04,1.6,202.2,M,-26.7,M,,*60

2015-07-22 11:20:16: $GPGGA,163106.000,3643.3905,N,12115.7904,W,1,04,1.6,202.2,M,-26.7,M,,*63

2015-07-22 11:20:17: $GPGGA,163107.000,3643.3905,N,12115.7904,W,1,04,1.6,202.2,M,-26.7,M,,*62

2015-07-22 11:20:18: $GPGGA,163108.000,3643.3905,N,12115.7904,W,1,04,1.6,202.2,M,-26.7,M,,*6D

2015-07-22 11:20:19: $GPGGA,163109.000,3643.3905,N,12115.7904,W,1,04,1.6,202.2,M,-26.7,M,,*6C

2015-07-22 11:20:20: $GPGGA,163110.000,3643.3905,N,12115.7904,W,1,04,1.6,202.2,M,-26.7,M,,*64

2015-07-22 11:20:21: $GPGGA,163111.000,3643.3905,N,12115.7904,W,1,04,1.6,202.2,M,-26.7,M,,*65

2015-07-22 11:20:22: $GPGGA,163112.000,3643.3905,N,12115.7904,W,1,05,1.6,202.2,M,-26.7,M,,*67

2015-07-22 11:20:23: $GPGGA,163113.000,3643.3905,N,12115.7904,W,1,05,1.6,202.2,M,-26.7,M,,*66

2015-07-22 11:20:24: $GPGGA,163114.000,3643.3905,N,12115.7904,W,1,05,1.6,202.2,M,-26.7,M,,*61

2015-07-22 11:20:25: $GPGGA,163115.000,3643.3905,N,12115.7904,W,1,05,1.6,202.2,M,-26.7,M,,*60

2015-07-22 11:20:26: $GPGGA,163116.000,3643.3905,N,12115.7904,W,1,05,1.6,202.2,M,-26.7,M,,*63

2015-07-22 11:20:27: $GPGGA,163117.000,3643.3905,N,12115.7904,W,1,05,1.6,202.2,M,-26.7,M,,*62

2015-07-22 11:20:28: $GPGGA,163118.000,3643.3905,N,12115.7904,W,1,05,1.6,202.2,M,-26.7,M,,*6D

2015-07-22 11:20:29: $GPGGA,163119.000,3643.3905,N,12115.7904,W,1,05,1.6,202.2,M,-26.7,M,,*6C

2015-07-22 11:20:30: $GPGGA,163120.000,3643.3905,N,12115.7904,W,1,05,1.6,202.2,M,-26.7,M,,*66

2015-07-22 11:20:31: $GPGGA,163121.000,3643.3905,N,12115.7904,W,1,05,1.6,202.2,M,-26.7,M,,*67

2015-07-22 11:20:35: ,12115.7904,W,1,06,1.2,202.2,M,-26.7,M,,*64

2015-07-22 11:20:36: $GPGGA,163126.000,3643.3905,N,12115.7904,W,1,06,1.2,202.2,M,-26.7,M,,*67

2015-07-22 11:20:37: $GPGGA,163127.000,3643.3905,N,12115.7904,W,1,06,1.2,202.2,M,-26.7,M,,*66

2015-07-22 11:20:38: $GPGGA,163128.000,3643.3905,N,12115.7904,W,1,06,1.2,202.2,M,-26.7,M,,*69

2015-07-22 11:20:39: $GPGGA,163129.000,3643.3905,N,12115.7904,W,1,05,1.6,202.2,M,-26.7,M,,*6F

2015-07-22 11:20:40: $GPGGA,163130.000,3643.3905,N,12115.7904,W,1,05,1.6,202.2,M,-26.7,M,,*67

2015-07-22 11:20:41: $GPGGA,163131.000,3643.3905,N,12115.7904,W,1,05,1.6,202.2,M,-26.7,M,,*66

2015-07-22 11:20:42: $GPGGA,163132.000,3643.3905,N,12115.7904,W,1,05,1.6,202.2,M,-26.7,M,,*65

2015-07-22 11:20:45: $GPGGA,163135.000,3643.3905,N,12115.7904,W,1,06,1.2,202.2,M,-26.7,M,,*65

2015-07-22 11:20:46: $GPGGA,163136.000,3643.3905,N,12115.7904,W,1,06,1.2,202.2,M,-26.7,M,,*66

2015-07-22 11:20:47: $GPGGA,163137.000,3643.3905,N,12115.7904,W,1,06,1.2,202.2,M,-26.7,M,,*67

2015-07-22 11:20:48: $GPGGA,163138.000,3643.3905,N,12115.7904,W,1,06,1.2,202.2,M,-26.7,M,,*68

2015-07-22 11:20:49: $GPGGA,163139.000,3643.3905,N,12115.7904,W,1,05,1.6,202.2,M,-26.7,M,,*6E

2015-07-22 11:21:05: $GPGGA,163155.000,3643.3905,N,12115.7904,W,1,06,1.2,202.2,M,-26.7,M,,*63

2015-07-22 11:21:36: $GPGGA,163226.000,3643.3905,N,12115.7904,W,1,06,1.2,202.2,M,-26.7,M,,*64

2015-07-22 11:21:37: $GPGGA,163227.000,3643.3905,N,12115.7904,W,1,06,1.2,202.2,M,-26.7,M,,*65

2015-07-22 11:21:38: $GPGGA,163228.000,3643.3905,N,12115.7904,W,1,06,1.2,202.2,M,-26.7,M,,*6A

2015-07-22 11:21:39: $GPGGA,163229.000,3643.3905,N,12115.7904,W,1,06,1.2,202.2,M,-26.7,M,,*6B

2015-07-22 11:21:40: $GPGGA,163230.000,3643.3905,N,12115.7904,W,1,05,1.6,202.2,M,-26.7,M,,*64

2015-07-22 11:21:41: $GPGGA,163231.000,3643.3905,N,12115.7904,W,1,05,1.6,202.2,M,-26.7,M,,*65

2015-07-22 11:21:42: $GPGGA,163232.000,3643.3905,N,12115.7904,W,1,05,1.6,202.2,M,-26.7,M,,*66

2015-07-22 11:21:43: $GPGGA,163233.000,3643.3905,N,12115.7904,W,1,06,1.2,202.2,M,-26.7,M,,*60

2015-07-22 11:21:44: $GPGGA,163234.000,3643.3905,N,12115.7904,W,1,06,1.2,202.2,M,-26.7,M,,*67

2015-07-22 11:21:45: $GPGGA,163235.000,3643.3905,N,12115.7904,W,1,06,1.2,202.2,M,-26.7,M,,*66

2015-07-22 11:21:46: $GPGGA,163236.000,3643.3905,N,12115.7904,W,1,06,1.2,202.2,M,-26.7,M,,*65

2015-07-22 11:21:47: $GPGGA,163237.000,3643.3905,N,12115.7904,W,1,06,1.2,202.2,M,-26.7,M,,*64

2015-07-22 11:21:48: $GPGGA,163238.000,3643.3905,N,12115.7904,W,1,06,1.2,202.2,M,-26.7,M,,*6B

2015-07-22 11:21:49: $GPGGA,163239.000,3643.3905,N,12115.7904,W,1,05,1.6,202.2,M,-26.7,M,,*6D

2015-07-22 11:21:50: $GPGGA,163240.000,3643.3905,N,12115.7904,W,1,06,1.2,202.2,M,-26.7,M,,*64

2015-07-22 11:21:51: $GPGGA,163241.000,3643.3905,N,12115.7904,W,1,06,1.2,202.2,M,-26.7,M,,*65

2015-07-22 11:21:52: $GPGGA,163242.000,3643.3905,N,12115.7904,W,1,05,1.6,202.2,M,-26.7,M,,*61

2015-07-22 11:21:53: $GPGGA,163243.000,3643.3905,N,12115.7904,W,1,06,1.2,202.2,M,-26.7,M,,*67

2015-07-22 11:21:54: $GPGGA,163244.000,3643.3905,N,12115.7904,W,1,06,1.2,202.2,M,-26.7,M,,*60

2015-07-22 11:21:55: $GPGGA,163245.000,3643.3905,N,12115.7904,W,1,05,1.6,202.2,M,-26.7,M,,*66

2015-07-22 11:21:56: $GPGGA,163246.000,3643.3905,N,12115.7904,W,1,06,1.2,202.2,M,-26.7,M,,*62

2015-07-22 11:21:57: $GPGGA,163247.000,3643.3905,N,12115.7904,W,1,06,1.2,202.2,M,-26.7,M,,*63

2015-07-22 11:21:58: $GPGGA,163248.000,3643.3905,N,12115.7904,W,1,06,1.2,202.2,M,-26.7,M,,*6C

2015-07-22 11:21:59: $GPGGA,163249.000,3643.3905,N,12115.7904,W,1,05,1.7,202.2,M,-26.7,M,,*6B

2015-07-22 11:22:00: $GPGGA,163250.000,3643.3905,N,12115.7904,W,1,06,1.2,202.2,M,-26.7,M,,*65

2015-07-22 11:22:01: $GPGGA,163251.000,3643.3905,N,12115.7904,W,1,06,1.2,202.2,M,-26.7,M,,*64

2015-07-22 11:22:02: $GPGGA,163252.000,3643.3905,N,12115.7904,W,1,06,1.2,202.2,M,-26.7,M,,*67

2015-07-22 11:22:03: $GPGGA,163253.000,3643.3905,N,12115.7904,W,1,06,1.2,202.2,M,-26.7,M,,*66

2015-07-22 11:22:04: $GPGGA,163254.000,3643.3905,N,12115.7904,W,1,06,1.2,202.2,M,-26.7,M,,*61

2015-07-22 11:22:05: $GPGGA,163255.000,3643.3905,N,12115.7904,W,1,06,1.2,202.2,M,-26.7,M,,*60

2015-07-22 11:22:06: $GPGGA,163256.000,3643.3905,N,12115.7904,W,1,05,1.6,202.2,M,-26.7,M,,*64

2015-07-22 11:22:07: $GPGGA,163257.000,3643.3905,N,12115.7904,W,1,06,1.2,202.2,M,-26.7,M,,*62

2015-07-22 11:22:08: $GPGGA,163258.000,3643.3905,N,12115.7904,W,1,06,1.2,202.2,M,-26.7,M,,*6D

2015-07-22 11:22:09: $GPGGA,163259.000,3643.3905,N,12115.7904,W,1,06,1.2,202.2,M,-26.7,M,,*6C

2015-07-22 11:22:10: $GPGGA,163300.000,3643.3905,N,12115.7904,W,1,06,1.2,202.2,M,-26.7,M,,*61

2015-07-22 11:22:11: $GPGGA,163301.000,3643.3905,N,12115.7904,W,1,06,1.2,202.2,M,-26.7,M,,*60

2015-07-22 11:22:12: $GPGGA,163302.000,3643.3905,N,12115.7904,W,1,06,1.2,202.2,M,-26.7,M,,*63

2015-07-22 11:22:13: $GPGGA,163303.000,3643.3905,N,12115.7904,W,1,06,1.2,202.2,M,-26.7,M,,*62

2015-07-22 11:22:14: $GPGGA,163304.000,3643.3905,N,12115.7904,W,1,06,1.2,202.2,M,-26.7,M,,*65

2015-07-22 11:22:15: $GPGGA,163305.000,3643.3905,N,12115.7904,W,1,06,1.2,202.2,M,-26.7,M,,*64

2015-07-22 11:22:16: $GPGGA,163306.000,3643.3905,N,12115.7904,W,1,06,1.2,202.2,M,-26.7,M,,*67

2015-07-22 11:22:17: $GPGGA,163307.000,3643.3905,N,12115.7904,W,1,05,1.6,202.2,M,-26.7,M,,*61

2015-07-22 11:22:18: $GPGGA,163308.000,3643.3905,N,12115.7904,W,1,05,1.6,202.2,M,-26.7,M,,*6E

2015-07-22 11:22:19: $GPGGA,163309.000,3643.3905,N,12115.7904,W,1,05,1.6,202.2,M,-26.7,M,,*6F

2015-07-22 11:22:20: $GPGGA,163310.000,3643.3905,N,12115.7904,W,1,05,1.6,202.2,M,-26.7,M,,*67

2015-07-22 11:22:21: $GPGGA,163311.000,3643.3905,N,12115.7904,W,1,05,1.6,202.2,M,-26.7,M,,*66

2015-07-22 11:22:22: $GPGGA,163312.000,3643.3905,N,12115.7904,W,1,05,1.6,202.2,M,-26.7,M,,*65

2015-07-22 11:22:23: $GPGGA,163313.000,3643.3905,N,12115.7904,W,1,04,6.8,202.2,M,-26.7,M,,*6C

2015-07-22 11:22:24: $GPGGA,163314.000,3643.3905,N,12115.7904,W,1,06,1.2,202.2,M,-26.7,M,,*64

2015-07-22 11:22:25: $GPGGA,163315.000,3643.3905,N,12115.7904,W,1,06,1.2,202.2,M,-26.7,M,,*65

2015-07-22 11:22:26: $GPGGA,163316.000,3643.3905,N,12115.7904,W,1,06,1.2,202.2,M,-26.7,M,,*66

2015-07-22 11:22:27: $GPGGA,163317.000,3643.3905,N,12115.7904,W,1,06,1.2,202.2,M,-26.7,M,,*67

2015-07-22 11:22:28: $GPGGA,163318.000,3643.3905,N,12115.7904,W,1,06,1.2,202.2,M,-26.7,M,,*68

2015-07-22 11:22:29: $GPGGA,163319.000,3643.3905,N,12115.7904,W,1,05,1.6,202.2,M,-26.7,M,,*6E

2015-07-22 11:22:30: $GPGGA,163320.000,3643.3905,N,12115.7904,W,1,05,1.6,202.2,M,-26.7,M,,*64

2015-07-22 11:22:31: $GPGGA,163321.000,3643.3905,N,12115.7904,W,1,05,1.6,202.2,M,-26.7,M,,*65

2015-07-22 11:22:32: $GPGGA,163322.000,3643.3905,N,12115.7904,W,1,05,1.6,202.2,M,-26.7,M,,*66

2015-07-22 11:22:33: $GPGGA,163323.000,3643.3905,N,12115.7904,W,1,05,1.6,202.2,M,-26.7,M,,*67

2015-07-22 11:22:34: $GPGGA,163324.000,3643.3905,N,12115.7904,W,1,05,1.6,202.2,M,-26.7,M,,*60

2015-07-22 11:22:35: $GPGGA,163325.000,3643.3905,N,12115.7904,W,1,05,1.6,202.2,M,-26.7,M,,*61

2015-07-22 11:22:36: $GPGGA,163326.000,3643.3905,N,12115.7904,W,1,05,1.6,202.2,M,-26.7,M,,*62

2015-07-22 11:22:37: $GPGGA,163327.000,3643.3905,N,12115.7904,W,1,05,1.6,202.2,M,-26.7,M,,*63

2015-07-22 11:22:38: $GPGGA,163328.000,3643.3905,N,12115.7904,W,1,05,1.6,202.2,M,-26.7,M,,*6C

2015-07-22 11:22:39: $GPGGA,163329.000,3643.3905,N,12115.7904,W,1,05,1.6,202.2,M,-26.7,M,,*6D

2015-07-22 11:22:40: $GPGGA,163330.000,3643.3905,N,12115.7904,W,1,04,5.3,202.2,M,-26.7,M,,*65

2015-07-22 11:22:41: $GPGGA,163331.000,3643.3905,N,12115.7904,W,1,04,5.3,202.2,M,-26.7,M,,*64

2015-07-22 11:22:42: $GPGGA,163332.000,3643.3905,N,12115.7904,W,1,04,5.3,202.2,M,-26.7,M,,*67

2015-07-22 11:22:43: $GPGGA,163333.000,3643.3905,N,12115.7904,W,1,04,5.3,202.2,M,-26.7,M,,*66

2015-07-22 11:22:44: $GPGGA,163334.000,3643.3905,N,12115.7904,W,1,04,5.3,202.2,M,-26.7,M,,*61

2015-07-22 11:22:45: $GPGGA,163335.000,3643.3905,N,12115.7904,W,1,04,5.3,202.2,M,-26.7,M,,*60

2015-07-22 11:22:46: $GPGGA,163336.000,3643.3905,N,12115.7904,W,1,04,5.3,202.2,M,-26.7,M,,*63

2015-07-22 11:22:47: $GPGGA,163337.000,3643.3905,N,12115.7904,W,1,04,5.3,202.2,M,-26.7,M,,*62

2015-07-22 11:22:48: $GPGGA,163338.000,3643.3905,N,12115.7904,W,1,03,17.6,202.2,M,-26.7,M,,*5C

2015-07-22 11:22:49: $GPGGA,163339.000,3643.3905,N,12115.7904,W,1,05,1.6,202.2,M,-26.7,M,,*6C

2015-07-22 11:22:50: $GPGGA,163340.000,3643.3905,N,12115.7904,W,1,05,1.6,202.2,M,-26.7,M,,*62

2015-07-22 11:22:51: $GPGGA,163341.000,3643.3905,N,12115.7904,W,1,05,1.6,202.2,M,-26.7,M,,*63

2015-07-22 11:22:52: $GPGGA,163342.000,3643.3905,N,12115.7904,W,1,05,1.6,202.2,M,-26.7,M,,*60

2015-07-22 11:22:53: $GPGGA,163343.000,3643.3905,N,12115.7904,W,1,05,1.6,202.2,M,-26.7,M,,*61

2015-07-22 11:22:54: $GPGGA,163344.000,3643.3905,N,12115.7904,W,1,04,5.2,202.2,M,-26.7,M,,*67

2015-07-22 11:22:55: $GPGGA,163345.000,3643.3905,N,12115.7904,W,1,06,1.2,202.2,M,-26.7,M,,*60

2015-07-22 11:22:56: $GPGGA,163346.000,3643.3905,N,12115.7904,W,1,05,1.6,202.2,M,-26.7,M,,*64

2015-07-22 11:22:57: $GPGGA,163347.000,3643.3905,N,12115.7904,W,1,05,1.6,202.2,M,-26.7,M,,*65

2015-07-22 11:22:58: $GPGGA,163348.000,3643.3905,N,12115.7904,W,1,06,1.2,202.2,M,-26.7,M,,*6D

2015-07-22 11:22:59: $GPGGA,163349.000,3643.3905,N,12115.7904,W,1,06,1.2,202.2,M,-26.7,M,,*6C

2015-07-22 11:23:00: $GPGGA,163350.000,3643.3905,N,12115.7904,W,1,04,1.6,202.2,M,-26.7,M,,*62

2015-07-22 11:23:01: $GPGGA,163351.000,3643.3905,N,12115.7904,W,1,06,1.2,202.2,M,-26.7,M,,*65

2015-07-22 11:23:02: $GPGGA,163352.000,3643.3905,N,12115.7904,W,1,06,1.2,202.2,M,-26.7,M,,*66

2015-07-22 11:23:03: $GPGGA,163353.000,3643.3905,N,12115.7904,W,1,06,1.2,202.2,M,-26.7,M,,*67

2015-07-22 11:23:04: $GPGGA,163354.000,3643.3905,N,12115.7904,W,1,06,1.2,202.2,M,-26.7,M,,*60

2015-07-22 11:23:05: $GPGGA,163355.000,3643.3905,N,12115.7904,W,1,06,1.2,202.2,M,-26.7,M,,*61

2015-07-22 11:23:06: $GPGGA,163356.000,3643.3905,N,12115.7904,W,1,03,2.5,202.2,M,-26.7,M,,*63

2015-07-22 11:23:07: $GPGGA,163357.000,3643.3905,N,12115.7904,W,1,05,1.6,202.2,M,-26.7,M,,*64

2015-07-22 11:23:08: $GPGGA,163358.000,3643.3905,N,12115.7904,W,1,05,1.6,202.2,M,-26.7,M,,*6B

2015-07-22 11:23:09: $GPGGA,163359.000,3643.3905,N,12115.7904,W,1,05,1.6,202.2,M,-26.7,M,,*6A

2015-07-22 11:23:10: $GPGGA,163400.000,3643.3905,N,12115.7904,W,1,05,1.6,202.2,M,-26.7,M,,*61

2015-07-22 11:23:11: $GPGGA,163401.000,3643.3905,N,12115.7904,W,1,05,1.6,202.2,M,-26.7,M,,*60

2015-07-22 11:23:12: $GPGGA,163402.000,3643.3905,N,12115.7904,W,1,04,5.2,202.2,M,-26.7,M,,*62

2015-07-22 11:23:13: $GPGGA,163403.000,3643.3905,N,12115.7904,W,1,04,5.2,202.2,M,-26.7,M,,*63

2015-07-22 11:23:14: $GPGGA,163404.000,3643.3905,N,12115.7904,W,1,04,5.2,202.2,M,-26.7,M,,*64

2015-07-22 11:23:15: $GPGGA,163405.000,3643.3905,N,12115.7904,W,1,05,1.6,202.2,M,-26.7,M,,*64

2015-07-22 11:23:16: $GPGGA,163406.000,3643.3905,N,12115.7904,W,1,05,1.6,202.2,M,-26.7,M,,*67

2015-07-22 11:23:17: $GPGGA,163407.000,3643.3905,N,12115.7904,W,1,05,1.6,202.2,M,-26.7,M,,*66

2015-07-22 11:23:18: $GPGGA,163408.000,3643.3905,N,12115.7904,W,1,05,1.6,202.2,M,-26.7,M,,*69

2015-07-22 11:23:19: $GPGGA,163409.000,3643.3905,N,12115.7904,W,1,04,6.6,202.2,M,-26.7,M,,*6E

2015-07-22 11:23:20: $GPGGA,163410.000,3643.3905,N,12115.7904,W,1,05,1.6,202.2,M,-26.7,M,,*60

2015-07-22 11:23:21: $GPGGA,163411.000,3643.3905,N,12115.7904,W,1,05,1.6,202.2,M,-26.7,M,,*61

2015-07-22 11:23:22: $GPGGA,163412.000,3643.3905,N,12115.7904,W,1,05,1.6,202.2,M,-26.7,M,,*62

2015-07-22 11:23:23: $GPGGA,163413.000,3643.3905,N,12115.7904,W,1,05,1.6,202.2,M,-26.7,M,,*63

2015-07-22 11:23:24: $GPGGA,163414.000,3643.3905,N,12115.7904,W,1,04,5.2,202.2,M,-26.7,M,,*65

2015-07-22 11:23:25: $GPGGA,163415.000,3643.3905,N,12115.7904,W,1,05,1.6,202.2,M,-26.7,M,,*65

2015-07-22 11:23:26: $GPGGA,163416.000,3643.3905,N,12115.7904,W,1,05,1.6,202.2,M,-26.7,M,,*66

2015-07-22 11:23:27: $GPGGA,163417.000,3643.3905,N,12115.7904,W,1,05,1.6,202.2,M,-26.7,M,,*67

2015-07-22 11:23:28: $GPGGA,163418.000,3643.3905,N,12115.7904,W,1,04,5.2,202.2,M,-26.7,M,,*69

2015-07-22 11:23:29: $GPGGA,163419.000,3643.3905,N,12115.7904,W,1,04,5.2,202.2,M,-26.7,M,,*68

2015-07-22 11:23:30: $GPGGA,163420.000,3643.3905,N,12115.7904,W,1,05,1.6,202.2,M,-26.7,M,,*63

2015-07-22 11:23:31: $GPGGA,163421.000,3643.3905,N,12115.7904,W,1,05,1.6,202.2,M,-26.7,M,,*62

2015-07-22 11:23:33: $GPGGA,163423.000,3643.3905,N,12115.7904,W,1,05,1.6,202.2,M,-26.7,M,,*60

2015-07-22 11:23:34: $GPGGA,163424.000,3643.3905,N,12115.7904,W,1,05,1.6,202.2,M,-26.7,M,,*67

2015-07-22 11:23:35: $GPGGA,163425.000,3643.3905,N,12115.7904,W,1,05,1.6,202.2,M,-26.7,M,,*66

2015-07-22 11:23:36: $GPGGA,163426.000,3643.3905,N,12115.7904,W,1,05,1.6,202.2,M,-26.7,M,,*65

2015-07-22 11:23:37: $GPGGA,163427.000,3643.3905,N,12115.7904,W,1,05,1.6,202.2,M,-26.7,M,,*64

2015-07-22 11:23:38: $GPGGA,163428.000,3643.3905,N,12115.7904,W,1,05,1.6,202.2,M,-26.7,M,,*6B

2015-07-22 11:23:39: $GPGGA,163429.000,3643.3905,N,12115.7904,W,1,05,1.6,202.2,M,-26.7,M,,*6A

2015-07-22 11:23:40: $GPGGA,163430.000,3643.3905,N,12115.7904,W,1,05,1.6,202.2,M,-26.7,M,,*62

2015-07-22 11:23:41: $GPGGA,163431.000,3643.3905,N,12115.7904,W,1,05,1.6,202.2,M,-26.7,M,,*63

2015-07-22 11:23:42: $GPGGA,163432.000,3643.3905,N,12115.7904,W,1,05,1.6,202.2,M,-26.7,M,,*60

2015-07-22 11:23:43: $GPGGA,163433.000,3643.3905,N,12115.7904,W,1,05,1.6,202.2,M,-26.7,M,,*61

2015-07-22 11:23:44: $GPGGA,163434.000,3643.3905,N,12115.7904,W,1,05,1.6,202.2,M,-26.7,M,,*66

2015-07-22 11:23:45: $GPGGA,163435.000,3643.3905,N,12115.7904,W,1,05,1.6,202.2,M,-26.7,M,,*67

2015-07-22 11:23:46: $GPGGA,163436.000,3643.3905,N,12115.7904,W,1,05,1.6,202.2,M,-26.7,M,,*64

2015-07-22 11:23:47: $GPGGA,163437.000,3643.3905,N,12115.7904,W,1,05,1.6,202.2,M,-26.7,M,,*65

2015-07-22 11:23:48: $GPGGA,163438.000,3643.3905,N,12115.7904,W,1,05,1.6,202.2,M,-26.7,M,,*6A

2015-07-22 11:23:49: $GPGGA,163439.000,3643.3905,N,12115.7904,W,1,05,1.6,202.2,M,-26.7,M,,*6B

2015-07-22 11:23:50: $GPGGA,163440.000,3643.3905,N,12115.7904,W,1,05,1.6,202.2,M,-26.7,M,,*65

2015-07-22 11:23:51: $GPGGA,163441.000,3643.3905,N,12115.7904,W,1,05,1.6,202.2,M,-26.7,M,,*64

2015-07-22 11:23:52: $GPGGA,163442.000,3643.3905,N,12115.7904,W,1,05,1.6,202.2,M,-26.7,M,,*67

2015-07-22 11:23:53: $GPGGA,163443.000,3643.3905,N,12115.7904,W,1,05,1.6,202.2,M,-26.7,M,,*66

2015-07-22 11:23:54: $GPGGA,163444.000,3643.3905,N,12115.7904,W,1,05,1.6,202.2,M,-26.7,M,,*61

2015-07-22 11:23:55: $GPGGA,163445.000,3643.3905,N,12115.7904,W,1,05,1.6,202.2,M,-26.7,M,,*60

2015-07-22 11:23:56: $GPGGA,163446.000,3643.3905,N,12115.7904,W,1,05,1.6,202.2,M,-26.7,M,,*63

2015-07-22 11:23:58: $GPGGA,163448.000,3643.3905,N,12115.7904,W,1,05,1.6,202.2,M,-26.7,M,,*6D

2015-07-22 11:23:59: $GPGGA,163449.000,3643.3905,N,12115.7904,W,1,05,1.6,202.2,M,-26.7,M,,*6C

2015-07-22 11:24:00: $GPGGA,163450.000,3643.3905,N,12115.7904,W,1,05,1.6,202.2,M,-26.7,M,,*64

2015-07-22 11:24:01: $GPGGA,163451.000,3643.3905,N,12115.7904,W,1,06,1.2,202.2,M,-26.7,M,,*62

2015-07-22 11:24:02: $GPGGA,163452.000,3643.3905,N,12115.7904,W,1,05,1.6,202.2,M,-26.7,M,,*66

2015-07-22 11:24:03: $GPGGA,163453.000,3643.3905,N,12115.7904,W,1,05,1.6,202.2,M,-26.7,M,,*67

2015-07-22 11:24:04: $GPGGA,163454.000,3643.3905,N,12115.7904,W,1,05,1.6,202.2,M,-26.7,M,,*60

2015-07-22 11:24:05: $GPGGA,163455.000,3643.3905,N,12115.7904,W,1,05,1.6,202.2,M,-26.7,M,,*61

2015-07-22 11:24:06: $GPGGA,163456.000,3643.3905,N,12115.7904,W,1,05,1.6,202.2,M,-26.7,M,,*62

2015-07-22 11:24:07: $GPGGA,163457.000,3643.3905,N,12115.7904,W,1,05,1.6,202.2,M,-26.7,M,,*63

2015-07-22 11:24:08: $GPGGA,163458.000,3643.3905,N,12115.7904,W,1,04,6.4,202.2,M,-26.7,M,,*68

2015-07-22 11:24:09: $GPGGA,163459.000,3643.3905,N,12115.7904,W,1,04,6.4,202.2,M,-26.7,M,,*69

2015-07-22 11:24:10: $GPGGA,163500.000,3643.3905,N,12115.7904,W,1,05,1.6,202.2,M,-26.7,M,,*60

2015-07-22 11:24:11: $GPGGA,163501.000,3643.3905,N,12115.7904,W,1,05,1.6,202.2,M,-26.7,M,,*61

2015-07-22 11:24:13: $GPGGA,163503.000,3643.3905,N,12115.7904,W,1,05,1.6,202.2,M,-26.7,M,,*63

2015-07-22 11:24:14: $GPGGA,163504.000,3643.3905,N,12115.7904,W,1,05,1.6,202.2,M,-26.7,M,,*64

2015-07-22 11:24:15: $GPGGA,163505.000,3643.3905,N,12115.7904,W,1,05,1.6,202.2,M,-26.7,M,,*65

2015-07-22 11:24:16: $GPGGA,163506.000,3643.3905,N,12115.7904,W,1,05,1.6,202.2,M,-26.7,M,,*66

2015-07-22 11:24:17: $GPGGA,163507.000,3643.3905,N,12115.7904,W,1,05,1.6,202.2,M,-26.7,M,,*67

2015-07-22 11:24:18: $GPGGA,163508.000,3643.3905,N,12115.7904,W,1,05,1.6,202.2,M,-26.7,M,,*68

2015-07-22 11:24:19: $GPGGA,163509.000,3643.3905,N,12115.7904,W,1,05,1.6,202.2,M,-26.7,M,,*69

2015-07-22 11:24:20: $GPGGA,163510.000,3643.3905,N,12115.7904,W,1,05,1.6,202.2,M,-26.7,M,,*61

2015-07-22 11:24:21: $GPGGA,163511.000,3643.3905,N,12115.7904,W,1,04,2.2,202.2,M,-26.7,M,,*66

2015-07-22 11:24:22: $GPGGA,163512.000,3643.3905,N,12115.7904,W,1,05,1.6,202.2,M,-26.7,M,,*63

2015-07-22 11:24:23: $GPGGA,163513.000,3643.3905,N,12115.7904,W,1,05,1.6,202.2,M,-26.7,M,,*62

2015-07-22 11:24:24: $GPGGA,163514.000,3643.3905,N,12115.7904,W,1,05,1.6,202.2,M,-26.7,M,,*65

2015-07-22 11:24:25: $GPGGA,163515.000,3643.3905,N,12115.7904,W,1,05,1.6,202.2,M,-26.7,M,,*64

2015-07-22 11:24:26: $GPGGA,163516.000,3643.3905,N,12115.7904,W,1,04,2.2,202.2,M,-26.7,M,,*61

2015-07-22 11:24:27: $GPGGA,163517.000,3643.3905,N,12115.7904,W,1,05,1.6,202.2,M,-26.7,M,,*66

2015-07-22 11:24:28: $GPGGA,163518.000,3643.3905,N,12115.7904,W,1,04,2.2,202.2,M,-26.7,M,,*6F

2015-07-22 11:24:29: $GPGGA,163519.000,3643.3905,N,12115.7904,W,1,05,1.7,202.2,M,-26.7,M,,*69

2015-07-22 11:24:30: $GPGGA,163520.000,3643.3905,N,12115.7904,W,1,04,2.2,202.2,M,-26.7,M,,*64

2015-07-22 11:24:31: $GPGGA,163521.000,3643.3905,N,12115.7904,W,1,04,2.2,202.2,M,-26.7,M,,*65

2015-07-22 11:24:33: $GPGGA,163523.000,3643.3905,N,12115.7904,W,1,05,1.6,202.2,M,-26.7,M,,*61

2015-07-22 11:24:34: $GPGGA,163524.000,3643.3905,N,12115.7904,W,1,05,1.6,202.2,M,-26.7,M,,*66

2015-07-22 11:24:35: $GPGGA,163525.000,3643.3905,N,12115.7904,W,1,04,2.2,202.2,M,-26.7,M,,*61

2015-07-22 11:24:36: $GPGGA,163526.000,3643.3905,N,12115.7904,W,1,05,1.7,202.2,M,-26.7,M,,*65

2015-07-22 11:24:37: 3,2.2,202.2,M,-26.7,M,,*64

2015-07-22 11:24:38: $GPGGA,163528.000,3643.3905,N,12115.7904,W,1,03,1.5,202.2,M,-26.7,M,,*6F

2015-07-22 11:24:39: $GPGGA,163529.000,3643.3905,N,12115.7904,W,1,03,1.9,202.2,M,-26.7,M,,*62

2015-07-22 11:24:40: $GPGGA,163530.000,3643.3905,N,12115.7904,W,1,04,3.8,202.2,M,-26.7,M,,*6E

2015-07-22 11:24:41: $GPGGA,163531.000,3643.3905,N,12115.7904,W,1,04,1.9,202.2,M,-26.7,M,,*6C

2015-07-22 11:24:42: $GPGGA,163532.000,3643.3905,N,12115.7904,W,1,05,1.7,202.2,M,-26.7,M,,*60

2015-07-22 11:24:43: $GPGGA,163533.000,3643.3905,N,12115.7904,W,1,04,2.2,202.2,M,-26.7,M,,*66

2015-07-22 11:24:44: $GPGGA,163534.000,3643.3905,N,12115.7904,W,1,06,1.2,202.2,M,-26.7,M,,*60

2015-07-22 11:24:45: $GPGGA,163535.000,3643.3905,N,12115.7904,W,1,06,1.2,202.2,M,-26.7,M,,*61

2015-07-22 11:24:46: $GPGGA,163536.000,3643.3905,N,12115.7904,W,1,06,1.2,202.2,M,-26.7,M,,*62

2015-07-22 11:24:47: $GPGGA,163537.000,3643.3905,N,12115.7904,W,1,06,1.2,202.2,M,-26.7,M,,*63

2015-07-22 11:24:48: $GPGGA,163538.000,3643.3905,N,12115.7904,W,1,06,1.2,202.2,M,-26.7,M,,*6C

2015-07-22 11:24:49: $GPGGA,163539.000,3643.3905,N,12115.7904,W,1,06,1.2,202.2,M,-26.7,M,,*6D

2015-07-22 11:24:50: $GPGGA,163540.000,3643.3905,N,12115.7904,W,1,06,1.2,202.2,M,-26.7,M,,*63

2015-07-22 11:24:51: $GPGGA,163541.000,3643.3905,N,12115.7904,W,1,06,1.2,202.2,M,-26.7,M,,*62

2015-07-22 11:24:54: $GPGGA,163544.000,3643.3905,N,12115.7904,W,1,04,8.6,202.2,M,-26.7,M,,*68

2015-07-22 11:24:55: $GPGGA,163545.000,3643.3905,N,12115.7904,W,1,04,8.6,202.2,M,-26.7,M,,*69

2015-07-22 11:24:56: $GPGGA,163546.000,3643.3905,N,12115.7904,W,1,06,1.2,202.2,M,-26.7,M,,*65

2015-07-22 11:24:57: $GPGGA,163547.000,3643.3905,N,12115.7904,W,1,05,1.3,202.2,M,-26.7,M,,*66

2015-07-22 11:24:58: $GPGGA,163548.000,3643.3905,N,12115.7904,W,1,05,1.3,202.2,M,-26.7,M,,*69

2015-07-22 11:24:59: $GPGGA,163549.000,3643.3905,N,12115.7904,W,1,05,1.3,202.2,M,-26.7,M,,*68

2015-07-22 11:25:00: $GPGGA,163550.000,3643.3905,N,12115.7904,W,1,04,5.2,202.2,M,-26.7,M,,*64

2015-07-22 11:25:01: $GPGGA,163551.000,3643.3905,N,12115.7904,W,1,05,1.3,202.2,M,-26.7,M,,*61

2015-07-22 11:25:03: $GPGGA,163553.000,3643.3905,N,12115.7904,W,1,05,1.3,202.2,M,-26.7,M,,*63

2015-07-22 11:25:04: $GPGGA,163554.000,3643.3905,N,12115.7904,W,1,05,1.3,202.2,M,-26.7,M,,*64

                                                                                                                                                                                                                                                                                                                                                                                                                                                                                                                                                                                                                                                                                                                                                                                                                                                                                                                                                                                                2015-07-22 11:17:38:                                                                                                                                                                                                                                                                                                                                                                                                                                                                                                                                                                                                                                                                                                                                                                                                                                                                                                                                                             Å¤„†„Ä¤¤„¦å¥¥Ä†…§¥Äb
2015-07-22 11:17:41: NO_GPS_DATA

2015-07-22 11:17:42: $GPGGA,165609.000,3643.3927,N,12115.7907,W,1,06,3.3,194.1,M,-26.7,M,,*64

2015-07-22 11:17:43: $GPGGA,165610.000,3643.3927,N,12115.7907,W,1,07,1.2,194.1,M,-26.7,M,,*6E

2015-07-22 11:17:44: $GPGGA,165611.000,3643.3927,N,12115.7907,W,1,07,1.2,194.1,M,-26.7,M,,*6F

2015-07-22 11:17:45: $GPGGA,165612.000,3643.3927,N,12115.7907,W,1,07,1.2,194.1,M,-26.7,M,,*6C

2015-07-22 11:17:46: $GPGGA,165613.000,3643.3927,N,12115.7907,W,1,07,1.2,194.1,M,-26.7,M,,*6D

2015-07-22 11:17:47: ,165614.000,3643.3927,N,12115.7907,W,1,07,1.2,194.1,M,-26.7,M,,*6A

2015-07-22 11:17:48: $GPGGA,165615.000,3643.3927,N,12115.7907,W,1,07,1.2,194.1,M,-26.7,M,,*6B

2015-07-22 11:17:50: $GPGGA,165617.000,3643.3927,N,12115.7907,W,1,07,1.2,194.1,M,-26.7,M,,*69

2015-07-22 11:17:51: $GPGGA,165618.000,3643.3927,N,12115.7907,W,1,07,1.2,194.1,M,-26.7,M,,*66

2015-07-22 11:17:52: $GPGGA,165619.000,3643.3927,N,12115.7907,W,1,07,1.2,194.1,M,-26.7,M,,*67

2015-07-22 11:17:53: $GPGGA,165620.000,3643.3927,N,12115.7907,W,1,07,1.2,194.1,M,-26.7,M,,*6D

2015-07-22 11:17:54: $GPGGA,165621.000,3643.3927,N,12115.7907,W,1,07,1.2,194.1,M,-26.7,M,,*6C

2015-07-22 11:17:55: $GPGGA,165622.000,3643.3927,N,12115.7907,W,1,07,1.2,194.1,M,-26.7,M,,*6F

2015-07-22 11:17:56: $GPGGA,165623.000,3643.3927,N,12115.7907,W,1,07,1.2,194.1,M,-26.7,M,,*6E

2015-07-22 11:17:57: $GPGGA,165624.000,3643.3927,N,12115.7907,W,1,07,1.2,194.1,M,-26.7,M,,*69

2015-07-22 11:17:58: $GPGGA,165625.000,3643.3927,N,12115.7907,W,1,07,1.2,194.1,M,-26.7,M,,*68

2015-07-22 11:17:59: $GPGGA,165626.000,3643.3927,N,12115.7907,W,1,06,1.3,194.1,M,-26.7,M,,*6B

2015-07-22 11:18:00: $GPGGA,165627.000,3643.3927,N,12115.7907,W,1,06,1.3,194.1,M,-26.7,M,,*6A

2015-07-22 11:18:01: $GPGGA,165628.000,3643.3927,N,12115.7907,W,1,07,1.2,194.1,M,-26.7,M,,*65

2015-07-22 11:18:02: $GPGGA,165629.000,3643.3927,N,12115.7907,W,1,07,1.2,194.1,M,-26.7,M,,*64

2015-07-22 11:18:03: $GPGGA,165630.000,3643.3927,N,12115.7907,W,1,07,1.2,194.1,M,-26.7,M,,*6C

2015-07-22 11:18:17: 7,1.2,194.1,M,-26.7,M,,*6F

2015-07-22 11:18:18: $GPGGA,165645.000,3643.3927,N,12115.7907,W,1,07,1.2,194.1,M,-26.7,M,,*6E

2015-07-22 11:18:19: $GPGGA,165646.000,3643.3927,N,12115.7907,W,1,07,1.2,194.1,M,-26.7,M,,*6D

2015-07-22 11:18:20: $GPGGA,165647.000,3643.3927,N,12115.7907,W,1,07,1.2,194.1,M,-26.7,M,,*6C

2015-07-22 11:18:25: $GPGGA,165652.000,3643.3927,N,12115.7907,W,1,07,1.2,194.1,M,-26.7,M,,*68

2015-07-22 11:18:26: ,07,1.2,194.1,M,-26.7,M,,*69

2015-07-22 11:18:27: $GPGGA,165654.000,3643.3927,N,12115.7907,W,1,07,1.2,194.1,M,-26.7,M,,*6E

2015-07-22 11:18:28: $GPGGA,165655.000,3643.3927,N,12115.7907,W,1,07,1.2,194.1,M,-26.7,M,,*6F

2015-07-22 11:18:29: $GPGGA,165656.000,3643.3927,N,12115.7907,W,1,07,1.2,194.1,M,-26.7,M,,*6C

2015-07-22 11:18:30: $GPGGA,165657.000,3643.3927,N,12115.7907,W,1,07,1.2,194.1,M,-26.7,M,,*6D

2015-07-22 11:18:31: $GPGGA,165658.000,3643.3927,N,12115.7907,W,1,07,1.2,194.1,M,-26.7,M,,*62

2015-07-22 11:18:32: $GPGGA,165659.000,3643.3927,N,12115.7907,W,1,07,1.2,194.1,M,-26.7,M,,*63

2015-07-22 11:18:33: $GPGGA,165700.000,3643.3927,N,12115.7907,W,1,07,1.2,194.1,M,-26.7,M,,*6E

2015-07-22 11:18:34: $GPGGA,165701.000,3643.3927,N,12115.7907,W,1,07,1.2,194.1,M,-26.7,M,,*6F

2015-07-22 11:18:35: $GPGGA,165702.000,3643.3927,N,12115.7907,W,1,07,1.2,194.1,M,-26.7,M,,*6C

2015-07-22 11:18:36: $GPGGA,165703.000,3643.3927,N,12115.7907,W,1,07,1.2,194.1,M,-26.7,M,,*6D

2015-07-22 11:18:37: $GPGGA,165704.000,3643.3927,N,12115.7907,W,1,06,1.3,194.1,M,-26.7,M,,*6A

2015-07-22 11:18:38: $GPGGA,165705.000,3643.3927,N,12115.7907,W,1,06,1.3,194.1,M,-26.7,M,,*6B

2015-07-22 11:18:39: $GPGGA,165706.000,3643.3927,N,12115.7907,W,1,06,1.3,194.1,M,-26.7,M,,*68

2015-07-22 11:18:40: $GPGGA,165707.000,3643.3927,N,12115.7907,W,1,06,1.3,194.1,M,-26.7,M,,*69

2015-07-22 11:18:41: $GPGGA,165708.000,3643.3927,N,12115.7907,W,1,06,1.3,194.1,M,-26.7,M,,*66

2015-07-22 11:18:42: $GPGGA,165709.000,3643.3927,N,12115.7907,W,1,06,1.3,194.1,M,-26.7,M,,*67

2015-07-22 11:18:43: $GPGGA,165710.000,3643.3927,N,12115.7907,W,1,06,1.3,194.1,M,-26.7,M,,*6F

2015-07-22 11:18:44: $GPGGA,165711.000,3643.3927,N,12115.7907,W,1,06,1.3,194.1,M,-26.7,M,,*6E

2015-07-22 11:18:45: $GPGGA,165712.000,3643.3927,N,12115.7907,W,1,06,1.3,194.1,M,-26.7,M,,*6D

2015-07-22 11:18:46: $GPGGA,165713.000,3643.3927,N,12115.7907,W,1,06,1.3,194.1,M,-26.7,M,,*6C

2015-07-22 11:18:47: $GPGGA,165714.000,3643.3927,N,12115.7907,W,1,06,1.3,194.1,M,-26.7,M,,*6B

2015-07-22 11:18:48: $GPGGA,165715.000,3643.3927,N,12115.7907,W,1,07,1.2,194.1,M,-26.7,M,,*6A

2015-07-22 11:18:49: $GPGGA,165716.000,3643.3927,N,12115.7907,W,1,07,1.2,194.1,M,-26.7,M,,*69

2015-07-22 11:18:50: $GPGGA,165717.000,3643.3927,N,12115.7907,W,1,07,1.2,194.1,M,-26.7,M,,*68

2015-07-22 11:18:52: $GPGGA,165719.000,3643.3927,N,12115.7907,W,1,08,1.2,194.1,M,-26.7,M,,*69

2015-07-22 11:18:53: $GPGGA,165720.000,3643.3927,N,12115.7907,W,1,06,1.2,194.1,M,-26.7,M,,*6D

2015-07-22 11:18:54: $GPGGA,165721.000,3643.3927,N,12115.7907,W,1,08,1.2,194.1,M,-26.7,M,,*62

2015-07-22 11:18:55: $GPGGA,165722.000,3643.3927,N,12115.7907,W,1,08,1.2,194.1,M,-26.7,M,,*61

2015-07-22 11:18:56: .2,194.1,M,-26.7,M,,*60

2015-07-22 11:18:57: $GPGGA,165724.000,3643.3927,N,12115.7907,W,1,08,1.2,194.1,M,-26.7,M,,*67

2015-07-22 11:18:58: $GPGGA,165725.000,3643.3927,N,12115.7907,W,1,08,1.2,194.1,M,-26.7,M,,*66

2015-07-22 11:18:59: $GPGGA,165726.000,3643.3927,N,12115.7907,W,1,08,1.2,194.1,M,-26.7,M,,*65

2015-07-22 11:19:00: $GPGGA,165727.000,3643.3927,N,12115.7907,W,1,08,1.2,194.1,M,-26.7,M,,*64

2015-07-22 11:19:03: $GPGGA,165730.000,3643.3927,N,12115.7907,W,1,08,1.2,194.1,M,-26.7,M,,*62

2015-07-22 11:19:04: $GPGGA,165731.000,3643.3927,N,12115.7907,W,1,08,1.2,194.1,M,-26.7,M,,*63

2015-07-22 11:19:05: $GPGGA,165732.000,3643.3927,N,12115.7907,W,1,08,1.2,194.1,M,-26.7,M,,*60

2015-07-22 11:19:07: $GPGGA,165734.000,3643.3927,N,12115.7907,W,1,08,1.2,194.1,M,-26.7,M,,*66

2015-07-22 11:19:08: $GPGGA,165735.000,3643.3927,N,12115.7907,W,1,08,1.2,194.1,M,-26.7,M,,*67

2015-07-22 11:19:09: $GPGGA,165736.000,3643.3927,N,12115.7907,W,1,08,1.2,194.1,M,-26.7,M,,*64

2015-07-22 11:19:10: $GPGGA,165737.000,3643.3927,N,12115.7907,W,1,08,1.2,194.1,M,-26.7,M,,*65

2015-07-22 11:19:12: $GPGGA,165739.000,3643.3927,N,12115.7907,W,1,08,1.2,194.1,M,-26.7,M,,*6B

2015-07-22 11:19:13: $GPGGA,165740.000,3643.3927,N,12115.7907,W,1,08,1.2,194.1,M,-26.7,M,,*65

2015-07-22 11:19:14: $GPGGA,165741.000,3643.3927,N,12115.7907,W,1,08,1.2,194.1,M,-26.7,M,,*64

2015-07-22 11:19:15: $GPGGA,165742.000,3643.3927,N,12115.7907,W,1,08,1.2,194.1,M,-26.7,M,,*67

2015-07-22 11:19:16: $GPGGA,165743.000,3643.3927,N,12115.7907,W,1,08,1.2,194.1,M,-26.7,M,,*66

2015-07-22 11:19:17: $GPGGA,165744.000,3643.3927,N,12115.7907,W,1,08,1.2,194.1,M,-26.7,M,,*61

2015-07-22 11:19:18: $GPGGA,165745.000,3643.3927,N,12115.7907,W,1,08,1.2,194.1,M,-26.7,M,,*60

2015-07-22 11:19:19: $GPGGA,165746.000,3643.3927,N,12115.7907,W,1,08,1.2,194.1,M,-26.7,M,,*63

2015-07-22 11:19:20: $GPGGA,165747.000,3643.3927,N,12115.7907,W,1,08,1.2,194.1,M,-26.7,M,,*62

2015-07-22 11:19:21: $GPGGA,165748.000,3643.3927,N,12115.7907,W,1,08,1.2,194.1,M,-26.7,M,,*6D

2015-07-22 11:19:22: $GPGGA,165749.000,3643.3927,N,12115.7907,W,1,08,1.2,194.1,M,-26.7,M,,*6C

2015-07-22 11:19:23: $GPGGA,165750.000,3643.3927,N,12115.7907,W,1,08,1.2,194.1,M,-26.7,M,,*64

2015-07-22 11:19:24: $GPGGA,165751.000,3643.3927,N,12115.7907,W,1,08,1.2,194.1,M,-26.7,M,,*65

2015-07-22 11:19:25: $GPGGA,165752.000,3643.3927,N,12115.7907,W,1,08,1.2,194.1,M,-26.7,M,,*66

2015-07-22 11:19:26: ,1.2,194.1,M,-26.7,M,,*67

2015-07-22 11:19:27: $GPGGA,165754.000,3643.3927,N,12115.7907,W,1,08,1.2,194.1,M,-26.7,M,,*60

2015-07-22 11:19:28: $GPGGA,165755.000,3643.3927,N,12115.7907,W,1,08,1.2,194.1,M,-26.7,M,,*61

2015-07-22 11:19:29: $GPGGA,165756.000,3643.3927,N,12115.7907,W,1,08,1.2,194.1,M,-26.7,M,,*62

2015-07-22 11:19:30: $GPGGA,165757.000,3643.3927,N,12115.7907,W,1,08,1.2,194.1,M,-26.7,M,,*63

2015-07-22 11:19:31: $GPGGA,165758.000,3643.3927,N,12115.7907,W,1,08,1.2,194.1,M,-26.7,M,,*6C

2015-07-22 11:19:32: $GPGGA,165759.000,3643.3927,N,12115.7907,W,1,08,1.2,194.1,M,-26.7,M,,*6D

2015-07-22 11:19:33: $GPGGA,165800.000,3643.3927,N,12115.7907,W,1,08,1.2,194.1,M,-26.7,M,,*6E

2015-07-22 11:19:34: $GPGGA,165801.000,3643.3927,N,12115.7907,W,1,08,1.2,194.1,M,-26.7,M,,*6F

2015-07-22 11:19:35: $GPGGA,165802.000,3643.3927,N,12115.7907,W,1,08,1.2,194.1,M,-26.7,M,,*6C

2015-07-22 11:19:36: $GPGGA,165803.000,3643.3927,N,12115.7907,W,1,08,1.2,194.1,M,-26.7,M,,*6D

